<?xml version="1.0" encoding="UTF-8"?>
<kml xmlns="http://www.opengis.net/kml/2.2">
  <Document>
    <name>KmlFile</name>
    <Style id="west_campus_style">
      <IconStyle>
        <Icon>
          <href>https://maps.google.com/mapfiles/kml/pushpin/ylw-pushpin.png
          </href>
        </Icon>
      </IconStyle>
      <BalloonStyle>
        <text>$[video]</text>
      </BalloonStyle>
    </Style>
    <Placemark>
			<name>Sumaré</name>
			<styleUrl>#west_campus_style</styleUrl>
			<Point>
				<coordinates>-46.678066400000034,-23.5509186,0.0</coordinates>
			</Point>
		</Placemark>
    <Placemark>
			<name>Rua Ministro Gastão Mesquita</name>
			<styleUrl>#west_campus_style</styleUrl>
			<Point>
				<coordinates>-46.67981929999996,-23.5387675,0.0</coordinates>
			</Point>
		</Placemark>
		<Placemark>
			<name>Sumaré</name>
			<styleUrl>#west_campus_style</styleUrl>
			<Point>
				<coordinates>-46.678066400000034,-23.5509186,0.0</coordinates>
			</Point>
		</Placemark>
		<Placemark>
			<name>Rua Bela Cintra</name>
			<styleUrl>#west_campus_style</styleUrl>
			<Point>
				<coordinates>-46.66297140000001,-23.5574614,0.0</coordinates>
			</Point>
		</Placemark>
		<Placemark>
			<name>Santa Cecilia</name>
			<styleUrl>#west_campus_style</styleUrl>
			<Point>
				<coordinates>-46.64934359999995,-23.5390511,0.0</coordinates>
			</Point>
		</Placemark>
		<Placemark>
			<name>Higienópolis</name>
			<styleUrl>#west_campus_style</styleUrl>
			<Point>
				<coordinates>-46.6501808,-23.5479367,0.0</coordinates>
			</Point>
		</Placemark>
		<Placemark>
			<name>Humberto I </name>
			<styleUrl>#west_campus_style</styleUrl>
			<Point>
				<coordinates>-46.6409326,-23.5866235,0.0</coordinates>
			</Point>
		</Placemark>
		<Placemark>
			<name>Estados unidos</name>
			<styleUrl>#west_campus_style</styleUrl>
			<Point>
				<coordinates>-46.6613281,-23.5744601,0.0</coordinates>
			</Point>
		</Placemark>
		<Placemark>
			<name>Vila Olímpia</name>
			<styleUrl>#west_campus_style</styleUrl>
			<Point>
				<coordinates>-46.68318270000001,-23.59445,0.0</coordinates>
			</Point>
		</Placemark>
  </Document>
</kml>
